[
    {
        "code": "ARBHI",
        "name": "Bahia Blanca",
        "city": "Bah\u00eda Blanca",
        "coordinates": [
            -62.28,
            -38.72
        ]
    },
    {
        "code": "ARBUE",
        "name": "Buenos Aires",
        "city": "Buenos Aires",
        "coordinates": [
            -58.67,
            -34.58
        ]
    },
    {
        "code": "ARCMP",
        "name": "Campana",
        "city": "Campana",
        "coordinates": [
            -58.95,
            -34.15
        ]
    },
    {
        "code": "ARCNQ",
        "name": "Corrientes",
        "city": "Corrientes",
        "coordinates": [
            -58.8306349,
            -27.4692131
        ]
    },
    {
        "code": "ARCRD",
        "name": "Comodoro Rivadavia",
        "city": "Comodoro Rivadavia",
        "coordinates": [
            -67.4822429,
            -45.8656149
        ]
    },
    {
        "code": "ARCVI",
        "name": "Caleta Olivia",
        "city": "Caleta Olivia",
        "coordinates": [
            -67.5171533,
            -46.4425647
        ]
    },
    {
        "code": "ARDDC",
        "name": "Delta Dock",
        "city": "Delta Dock",
        "coordinates": [
            -34.0447572,
            -59.199761
        ]
    },
    {
        "code": "ARLPG",
        "name": "La Plata",
        "city": "La Plata",
        "coordinates": [
            -57.88,
            -34.85
        ]
    },
    {
        "code": "ARMDQ",
        "name": "Mar del Plata",
        "city": "Mar del Plata",
        "coordinates": [
            -57.53,
            -38.05
        ]
    },
    {
        "code": "ARNEC",
        "name": "Necochea",
        "city": "Necochea",
        "coordinates": [
            -58.73960879999999,
            -38.5544968
        ]
    },
    {
        "code": "AROYA",
        "name": "Goya",
        "city": "Goya",
        "coordinates": [
            -59.2643242,
            -29.1442242
        ]
    },
    {
        "code": "ARPMY",
        "name": "Puerto Madryn",
        "city": "Puerto Madryn",
        "coordinates": [
            -65.03,
            -42.75
        ]
    },
    {
        "code": "ARPUD",
        "name": "Puerto Deseado",
        "city": "Puerto Deseado",
        "coordinates": [
            -65.9,
            -47.75
        ]
    },
    {
        "code": "ARRGA",
        "name": "Rio Grande",
        "city": "R\u00edo Grande",
        "coordinates": [
            -67.7,
            -53.78
        ]
    },
    {
        "code": "ARRGL",
        "name": "Rio Gallegos",
        "city": "R\u00edo Gallegos",
        "coordinates": [
            -69.22,
            -51.63
        ]
    },
    {
        "code": "ARRIC",
        "name": "Rio Cullen",
        "city": "Rio Cullen",
        "coordinates": [
            -68.3523021,
            -52.8955609
        ]
    },
    {
        "code": "ARROS",
        "name": "Rosario",
        "city": "Rosario",
        "coordinates": [
            -60.65,
            -32.95
        ]
    },
    {
        "code": "ARSAE",
        "name": "San Antonio Este",
        "city": "San Antonio Este",
        "coordinates": [
            -64.73,
            -40.8
        ]
    },
    {
        "code": "ARSFN",
        "name": "Santa Fe",
        "city": "Santa Fe",
        "coordinates": [
            -60.68,
            -31.6
        ]
    },
    {
        "code": "ARSLO",
        "name": "San Lorenzo",
        "city": "San Lorenzo",
        "coordinates": [
            -60.7238722,
            -32.8072889
        ]
    },
    {
        "code": "ARSNS",
        "name": "San Nicolas de los Arroyos",
        "city": "San Nicol\u00e1s de los Arroyos",
        "coordinates": [
            -60.23,
            -33.33
        ]
    },
    {
        "code": "ARSPD",
        "name": "San Pedro",
        "city": "San Pedro",
        "coordinates": [
            -59.17,
            -33.68
        ]
    },
    {
        "code": "ARUSH",
        "name": "Ushuaia",
        "city": "Ushuaia",
        "coordinates": [
            -68.3,
            -54.8
        ]
    },
    {
        "code": "ARZAE",
        "name": "Zarate",
        "city": "Z\u00e1rate",
        "coordinates": [
            -59.03,
            -34.1
        ]
    }
]