[
    {
        "code": "INAGR",
        "name": "Agra",
        "city": "Agra",
        "coordinates": [
            78.00807449999999,
            27.1766701
        ]
    },
    {
        "code": "INKAK",
        "name": "Kakinada",
        "city": "Kakinada",
        "coordinates": [
            82.2475,
            16.9891
        ]
    },
    {
        "code": "INAMD",
        "name": "Ahmedabad",
        "city": "Ahmedabad",
        "coordinates": [
            72.62,
            23.03
        ]
    },
    {
        "code": "INBLR",
        "name": "Bangalore",
        "city": "Bangalore",
        "coordinates": [
            77.58,
            12.98
        ]
    },
    {
        "code": "INBOM",
        "name": "Mumbai (ex Bombay)",
        "city": "Mumbai (ex Bombay)",
        "coordinates": [
            72.82,
            18.97
        ]
    },
    {
        "code": "INCCU",
        "name": "Kolkata (ex Calcutta)",
        "city": "Kolkata (ex Calcutta)",
        "coordinates": [
            88.35,
            22.57
        ]
    },
    {
        "code": "INCDL",
        "name": "Cuddalore",
        "city": "Cuddalore",
        "coordinates": [
            79.7680243,
            11.744699
        ]
    },
    {
        "code": "INCJB",
        "name": "Coimbatore",
        "city": "Coimbatore",
        "coordinates": [
            76.9558321,
            11.0168445
        ]
    },
    {
        "code": "INCOK",
        "name": "Cochin",
        "city": "Cochin",
        "coordinates": [
            76.23,
            9.97
        ]
    },
    {
        "code": "INDAM",
        "name": "Daman",
        "city": "Daman",
        "coordinates": [
            72.8327991,
            20.3973736
        ]
    },
    {
        "code": "INDRI",
        "name": "Dadri",
        "city": "Dadri",
        "coordinates": [
            77.55,
            28.57
        ]
    },
    {
        "code": "INGOI",
        "name": "Goa",
        "city": "Goa",
        "coordinates": [
            74.12399599999999,
            15.2993265
        ]
    },
    {
        "code": "INHAL",
        "name": "Haldia",
        "city": "Haldia",
        "coordinates": [
            88.06981180000001,
            22.0666742
        ]
    },
    {
        "code": "INHYD",
        "name": "Hyderabad",
        "city": "Hyderabad",
        "coordinates": [
            79.1766114,
            15.1283849
        ]
    },
    {
        "code": "INICD",
        "name": "New Delhi",
        "city": "New Delhi",
        "coordinates": [
            77.2,
            28.6
        ]
    },
    {
        "code": "INIXE",
        "name": "Mangalore",
        "city": "Mangalore",
        "coordinates": [
            74.8559568,
            12.9141417
        ]
    },
    {
        "code": "INIXY",
        "name": "Kandla",
        "city": "Kandla",
        "coordinates": [
            70.22,
            23.03
        ]
    },
    {
        "code": "INJAI",
        "name": "Jaipur",
        "city": "Jaipur",
        "coordinates": [
            75.82,
            26.92
        ]
    },
    {
        "code": "INJDH",
        "name": "Jodhpur",
        "city": "Jodhpur",
        "coordinates": [
            73.03,
            26.25
        ]
    },
    {
        "code": "INKNU",
        "name": "Kanpur",
        "city": "Kanpur",
        "coordinates": [
            80.3318736,
            26.449923
        ]
    },
    {
        "code": "INKRI",
        "name": "Krishnapatnam",
        "city": "Krishnapatnam",
        "coordinates": [
            80.1248476,
            14.2886008
        ]
    },
    {
        "code": "INLUH",
        "name": "Ludhiana",
        "city": "Ludhiana",
        "coordinates": [
            75.8572758,
            30.900965
        ]
    },
    {
        "code": "INMAA",
        "name": "Chennai (ex Madras)",
        "city": "Chennai (ex Madras)",
        "coordinates": [
            80.28,
            13.08
        ]
    },
    {
        "code": "INMOR",
        "name": "Moradabad",
        "city": "Moradabad",
        "coordinates": [
            78.78,
            28.83
        ]
    },
    {
        "code": "INMRM",
        "name": "Marmagao (Marmugao)",
        "city": "Marmagao (Marmugao)",
        "coordinates": [
            73.78,
            15.4
        ]
    },
    {
        "code": "INMUN",
        "name": "Mundra",
        "city": "Mundra",
        "coordinates": [
            69.7213266,
            22.8395202
        ]
    },
    {
        "code": "INNAG",
        "name": "Nagpur",
        "city": "Nagpur",
        "coordinates": [
            79.0881546,
            21.1458004
        ]
    },
    {
        "code": "INNSA",
        "name": "Jawaharlal Nehru (Nhava Sheva)",
        "city": "Jawaharlal Nehru (Nhava Sheva)",
        "coordinates": [
            72.9504858,
            18.9497162
        ]
    },
    {
        "code": "INPAP",
        "name": "Panipat",
        "city": "Panipat",
        "coordinates": [
            76.9635023,
            29.3909464
        ]
    },
    {
        "code": "INPAV",
        "name": "Pipavav (Victor) Port",
        "city": "Pipavav (Victor)",
        "coordinates": [
            71.55,
            20.97
        ]
    },
    {
        "code": "INPIR",
        "name": "Pithampur",
        "city": "Pithampur",
        "coordinates": [
            75.6822899,
            22.613252
        ]
    },
    {
        "code": "INPNQ",
        "name": "Pune",
        "city": "Pune",
        "coordinates": [
            73.8567437,
            18.5204303
        ]
    },
    {
        "code": "INSTV",
        "name": "Surat",
        "city": "Surat",
        "coordinates": [
            72.83,
            21.17
        ]
    },
    {
        "code": "INTUT",
        "name": "Tuticorin",
        "city": "Tuticorin",
        "coordinates": [
            78.13,
            8.78
        ]
    },
    {
        "code": "INVTZ",
        "name": "Visakhapatnam",
        "city": "Visakhapatnam",
        "coordinates": [
            83.3,
            17.7
        ]
    },
    {
        "code": "INVVA",
        "name": "Veraval",
        "city": "Veraval",
        "coordinates": [
            70.3628516,
            20.9158979
        ]
    }
]