[
    {
        "code": "ANEUX",
        "name": "Sint Eustatius (Antilles)",
        "city": "Sint Eustatius (Antilles)",
        "coordinates": [
            -63.08416659999999,
            18.0348259
        ]
    },
    {
        "code": "NLALK",
        "name": "Alkmaar",
        "city": "Alkmaar",
        "coordinates": [
            4.753375399999999,
            52.6323813
        ]
    },
    {
        "code": "NLAMS",
        "name": "Amsterdam",
        "city": "Amsterdam",
        "coordinates": [
            4.895167900000001,
            52.3702157
        ]
    },
    {
        "code": "NLBZM",
        "name": "Bergen op Zoom",
        "city": "Bergen op Zoom",
        "coordinates": [
            4.3,
            51.5
        ]
    },
    {
        "code": "NLDOR",
        "name": "Dordrecht",
        "city": "Dordrecht",
        "coordinates": [
            4.6900929,
            51.81329789999999
        ]
    },
    {
        "code": "NLEEM",
        "name": "Eemshaven",
        "city": "Eemshaven",
        "coordinates": [
            6.8354937,
            53.4385887
        ]
    },
    {
        "code": "NLGRQ",
        "name": "Groningen",
        "city": "Groningen",
        "coordinates": [
            6.566501799999999,
            53.2193835
        ]
    },
    {
        "code": "NLHVH",
        "name": "Hoek van Holland",
        "city": "Hoek van Holland",
        "coordinates": [
            4.1341847,
            51.9806322
        ]
    },
    {
        "code": "NLIJM",
        "name": "IJmuiden/Velsen",
        "city": "IJmuiden/Velsen",
        "coordinates": [
            4.6,
            52.47
        ]
    },
    {
        "code": "NLMOE",
        "name": "Moerdijk",
        "city": "Moerdijk",
        "coordinates": [
            4.6273499,
            51.70181669999999
        ]
    },
    {
        "code": "NLRTM",
        "name": "Rotterdam",
        "city": "Rotterdam",
        "coordinates": [
            4.5,
            51.92
        ]
    },
    {
        "code": "NLTNZ",
        "name": "Terneuzen",
        "city": "Terneuzen",
        "coordinates": [
            3.8324265,
            51.3322854
        ]
    },
    {
        "code": "NLVEL",
        "name": "Velsen",
        "city": "Velsen",
        "coordinates": [
            4.630587,
            52.4520591
        ]
    },
    {
        "code": "NLVLA",
        "name": "Vlaardingen",
        "city": "Vlaardingen",
        "coordinates": [
            4.3494366,
            51.9120668
        ]
    },
    {
        "code": "NLVLI",
        "name": "Vlissingen",
        "city": "Vlissingen",
        "coordinates": [
            3.5709125,
            51.4536672
        ]
    },
    {
        "code": "NLZAA",
        "name": "Zaandam",
        "city": "Zaandam",
        "coordinates": [
            4.8291992,
            52.4420399
        ]
    },
    {
        "code": "NLZEW",
        "name": "Zeewolde",
        "city": "Zeewolde",
        "coordinates": [
            5.55,
            52.35
        ]
    }
]