[
    {
        "code": "PTADH",
        "name": "Angra do Heroismo",
        "city": "Angra do Hero\u00edsmo",
        "coordinates": [
            -27.22,
            38.65
        ]
    },
    {
        "code": "PTCNL",
        "name": "Canical",
        "city": "Cani\u00e7al",
        "coordinates": [
            -16.73,
            32.73
        ]
    },
    {
        "code": "PTENT",
        "name": "Entroncamento",
        "city": "Entroncamento",
        "coordinates": [
            -8.47,
            39.47
        ]
    },
    {
        "code": "PTFDF",
        "name": "Figueira da Foz",
        "city": "Figueira da Foz",
        "coordinates": [
            -8.87,
            40.15
        ]
    },
    {
        "code": "PTFNC",
        "name": "Funchal, Madeira",
        "city": "Funchal, Madeira",
        "coordinates": [
            -16.9,
            32.63
        ]
    },
    {
        "code": "PTHOR",
        "name": "Horta",
        "city": "Horta",
        "coordinates": [
            -28.63,
            38.53
        ]
    },
    {
        "code": "PTLEI",
        "name": "Leixoes",
        "city": "Leix\u00f5es",
        "coordinates": [
            -8.68,
            41.18
        ]
    },
    {
        "code": "PTLIS",
        "name": "Lisboa",
        "city": "Lisboa",
        "coordinates": [
            -9.13,
            38.72
        ]
    },
    {
        "code": "PTOPO",
        "name": "Porto",
        "city": "Porto",
        "coordinates": [
            -8.62,
            41.15
        ]
    },
    {
        "code": "PTPDL",
        "name": "Ponta Delgada",
        "city": "Ponta Delgada",
        "coordinates": [
            -25.67,
            37.73
        ]
    },
    {
        "code": "PTPRV",
        "name": "Praia da Vitoria",
        "city": "Praia da Vit\u00f3ria",
        "coordinates": [
            -27.07,
            38.73
        ]
    },
    {
        "code": "PTSET",
        "name": "Setubal",
        "city": "Set\u00fabal",
        "coordinates": [
            -8.9,
            38.53
        ]
    },
    {
        "code": "PTSIE",
        "name": "Sines",
        "city": "Sines",
        "coordinates": [
            -8.87,
            37.95
        ]
    },
    {
        "code": "PTTER",
        "name": "Terceira Island Apt",
        "city": "Terceira Island Apt",
        "coordinates": [
            -27.22,
            38.72
        ]
    },
    {
        "code": "PTVDC",
        "name": "Viana do Castelo",
        "city": "Viana do Castelo",
        "coordinates": [
            -8.83,
            41.7
        ]
    }
]