[
    {
        "code": "KRCHA",
        "name": "Jeju",
        "city": "Jeju",
        "coordinates": [
            126.52,
            33.5
        ]
    },
    {
        "code": "KRCHF",
        "name": "Jinhae",
        "city": "Jinhae",
        "coordinates": [
            128.65,
            35.13
        ]
    },
    {
        "code": "KRCHG",
        "name": "Janghang/Seocheon-gun",
        "city": "Janghang/Seocheon-gun",
        "coordinates": [
            126.68,
            36
        ]
    },
    {
        "code": "KRCHO",
        "name": "Cheonan",
        "city": "Cheonan",
        "coordinates": [
            127.15,
            36.8
        ]
    },
    {
        "code": "KRCHU",
        "name": "Chungju",
        "city": "Chungju",
        "coordinates": [
            127.92,
            36.97
        ]
    },
    {
        "code": "KRCHW",
        "name": "Changwon",
        "city": "Changwon",
        "coordinates": [
            128.67,
            35.22
        ]
    },
    {
        "code": "KRCWO",
        "name": "Cheongwon-gun",
        "city": "Cheongwon-gun",
        "coordinates": [
            127.48,
            36.63
        ]
    },
    {
        "code": "KRGYG",
        "name": "Goyang",
        "city": "Goyang",
        "coordinates": [
            126.82,
            37.65
        ]
    },
    {
        "code": "KRHIN",
        "name": "Jinju",
        "city": "Jinju",
        "coordinates": [
            128.08,
            35.17
        ]
    },
    {
        "code": "KRHYG",
        "name": "Hamyang-gun",
        "city": "Hamyang-gun",
        "coordinates": [
            127.72,
            35.52
        ]
    },
    {
        "code": "KRHYP",
        "name": "Hyeonpoong/Daegu",
        "city": "Hyeonpoong/Daegu",
        "coordinates": [
            128.43,
            35.68
        ]
    },
    {
        "code": "KRICH",
        "name": "Incheon",
        "city": "Incheon",
        "coordinates": [
            126.6168962,
            37.4767894
        ]
    },
    {
        "code": "KRINC",
        "name": "Incheon",
        "city": "Incheon",
        "coordinates": [
            126.62,
            37.45
        ]
    },
    {
        "code": "KRJEO",
        "name": "Jeongeup",
        "city": "Jeongeup",
        "coordinates": [
            126.85,
            35.57
        ]
    },
    {
        "code": "KRJGE",
        "name": "Geoje",
        "city": "Geoje",
        "coordinates": [
            128.68,
            34.9
        ]
    },
    {
        "code": "KRJHG",
        "name": "Jangheung-gun",
        "city": "Jangheung-gun",
        "coordinates": [
            126.9,
            34.67
        ]
    },
    {
        "code": "KRKAN",
        "name": "Gwangyang",
        "city": "Gwangyang",
        "coordinates": [
            127.7,
            34.93
        ]
    },
    {
        "code": "KRKJE",
        "name": "Geoje",
        "city": "Geoje",
        "coordinates": [
            128.58,
            34.85
        ]
    },
    {
        "code": "KRKMC",
        "name": "Gimcheon",
        "city": "Gimcheon",
        "coordinates": [
            128.1,
            36.12
        ]
    },
    {
        "code": "KRKPO",
        "name": "Pohang",
        "city": "Pohang",
        "coordinates": [
            129.37,
            36.03
        ]
    },
    {
        "code": "KRKUM",
        "name": "Gumi",
        "city": "Gumi",
        "coordinates": [
            128.33,
            36.12
        ]
    },
    {
        "code": "KRKUV",
        "name": "Gunsan",
        "city": "Gunsan",
        "coordinates": [
            126.72,
            35.98
        ]
    },
    {
        "code": "KRKWJ",
        "name": "Gwangju",
        "city": "Gwangju",
        "coordinates": [
            126.9,
            35.15
        ]
    },
    {
        "code": "KRKWU",
        "name": "Gwangju",
        "city": "Gwangju",
        "coordinates": [
            127.25,
            37.4
        ]
    },
    {
        "code": "KRMAS",
        "name": "Masan",
        "city": "Masan",
        "coordinates": [
            128.57,
            35.2
        ]
    },
    {
        "code": "KRMOK",
        "name": "Mokpo",
        "city": "Mokpo",
        "coordinates": [
            126.38,
            34.8
        ]
    },
    {
        "code": "KRNYJ",
        "name": "Namyang/Goheung-gun",
        "city": "Namyang/Goheung-gun",
        "coordinates": [
            127.33,
            34.72
        ]
    },
    {
        "code": "KRNYU",
        "name": "Namyangju",
        "city": "Namyangju",
        "coordinates": [
            127.2,
            37.63
        ]
    },
    {
        "code": "KROKP",
        "name": "Okpo/Geoje",
        "city": "Okpo/Geoje",
        "coordinates": [
            128.7,
            34.88
        ]
    },
    {
        "code": "KRONS",
        "name": "Onsan/Ulsan",
        "city": "Onsan/Ulsan",
        "coordinates": [
            129.35,
            35.43
        ]
    },
    {
        "code": "KRPUS",
        "name": "Busan",
        "city": "Busan",
        "coordinates": [
            129.05,
            35.13
        ]
    },
    {
        "code": "KRSCP",
        "name": "Samcheonpo/Sacheon",
        "city": "Samcheonpo/Sacheon",
        "coordinates": [
            128.07,
            34.92
        ]
    },
    {
        "code": "KRSEL",
        "name": "Seoul",
        "city": "Seoul",
        "coordinates": [
            126.93,
            37.52
        ]
    },
    {
        "code": "KRSSA",
        "name": "Seosan",
        "city": "Seosan",
        "coordinates": [
            126.45,
            36.78
        ]
    },
    {
        "code": "KRTAE",
        "name": "Daegu",
        "city": "Daegu",
        "coordinates": [
            128.58,
            35.87
        ]
    },
    {
        "code": "KRTJN",
        "name": "Daejeon",
        "city": "Daejeon",
        "coordinates": [
            127.42,
            36.32
        ]
    },
    {
        "code": "KRTYG",
        "name": "Tongyeong",
        "city": "Tongyeong",
        "coordinates": [
            128.42,
            34.83
        ]
    },
    {
        "code": "KRUSN",
        "name": "Ulsan",
        "city": "Ulsan",
        "coordinates": [
            129.32,
            35.53
        ]
    },
    {
        "code": "KRYES",
        "name": "Yesan",
        "city": "Yesan",
        "coordinates": [
            126.83,
            36.68
        ]
    },
    {
        "code": "KRYOS",
        "name": "Yeosu",
        "city": "Yeosu",
        "coordinates": [
            127.72,
            34.75
        ]
    }
]